{"type":"FeatureCollection","features":[{"type":"Feature","geometry":{"type":"Point","coordinates":[-114.459909,51.161989]},"properties":{"Project ID":"F1489","Project Name":"greenland","Status":"Lose","Description":"roofing","Updated At":""}},{"type":"Feature","geometry":{"type":"Point","coordinates":[-114.4721913,51.1589097]},"properties":{"Project ID":"F1598","Project Name":"iceland","Status":"Won","Description":"gypcrete","Updated At":""}},{"type":"Feature","geometry":{"type":"Point","coordinates":[-114.4753415,51.160452]},"properties":{"Project ID":"F1614","Project Name":"monowheel","Status":"DP placed","Description":"cladding","Updated At":""}},{"type":"Feature","geometry":{"type":"Point","coordinates":[-114.040869,51.024639]},"properties":{"Project ID":"F000","Project Name":"base","Status":"Bid submitted","Description":"traffic coating","Updated At":""}},{"type":"Feature","geometry":{"type":"Point","coordinates":[-114.053716,51.0212126]},"properties":{"Project ID":"F900","Project Name":"Cabin","Status":"Won","Description":"waterproofing","Updated At":""}},{"type":"Feature","geometry":{"type":"Point","coordinates":[-114.0518048,51.02284]},"properties":{"Project ID":"F700","Project Name":"Peak","Status":"Estimating","Description":"service","Updated At":""}},{"type":"Feature","geometry":{"type":"Point","coordinates":[-114.459909,51.161989]},"properties":{"Project ID":"F1489","Project Name":"greenland","Status":"Lose","Description":"roofing","Updated At":""}},{"type":"Feature","geometry":{"type":"Point","coordinates":[-114.4721913,51.1589097]},"properties":{"Project ID":"F1598","Project Name":"iceland","Status":"Won","Description":"gypcrete","Updated At":""}},{"type":"Feature","geometry":{"type":"Point","coordinates":[-114.4753415,51.160452]},"properties":{"Project ID":"F1614","Project Name":"monowheel","Status":"DP placed","Description":"cladding","Updated At":""}},{"type":"Feature","geometry":{"type":"Point","coordinates":[-114.040869,51.024639]},"properties":{"Project ID":"F000","Project Name":"base","Status":"Bid submitted","Description":"traffic coating","Updated At":""}},{"type":"Feature","geometry":{"type":"Point","coordinates":[-114.053716,51.0212126]},"properties":{"Project ID":"F900","Project Name":"Cabin","Status":"Won","Description":"waterproofing","Updated At":""}},{"type":"Feature","geometry":{"type":"Point","coordinates":[-114.0518048,51.02284]},"properties":{"Project ID":"F700","Project Name":"Peak","Status":"Estimating","Description":"service","Updated At":""}},{"type":"Feature","geometry":{"type":"Point","coordinates":[-114.459909,51.161989]},"properties":{"Project ID":"F1489","Project Name":"greenland","Status":"Lose","Description":"roofing","Updated At":""}},{"type":"Feature","geometry":{"type":"Point","coordinates":[-114.4721913,51.1589097]},"properties":{"Project ID":"F1598","Project Name":"iceland","Status":"Won","Description":"gypcrete","Updated At":""}},{"type":"Feature","geometry":{"type":"Point","coordinates":[-114.4753415,51.160452]},"properties":{"Project ID":"F1614","Project Name":"monowheel","Status":"DP placed","Description":"cladding","Updated At":""}},{"type":"Feature","geometry":{"type":"Point","coordinates":[-114.040869,51.024639]},"properties":{"Project ID":"F000","Project Name":"base","Status":"Bid submitted","Description":"traffic coating","Updated At":""}},{"type":"Feature","geometry":{"type":"Point","coordinates":[-114.053716,51.0212126]},"properties":{"Project ID":"F900","Project Name":"Cabin","Status":"Won","Description":"waterproofing","Updated At":""}},{"type":"Feature","geometry":{"type":"Point","coordinates":[-114.0518048,51.02284]},"properties":{"Project ID":"F700","Project Name":"Peak","Status":"Estimating","Description":"service","Updated At":""}},{"type":"Feature","geometry":{"type":"Point","coordinates":[-114.459909,51.161989]},"properties":{"Project ID":"F1489","Project Name":"greenland","Status":"Lose","Description":"roofing","Updated At":""}},{"type":"Feature","geometry":{"type":"Point","coordinates":[-114.4721913,51.1589097]},"properties":{"Project ID":"F1598","Project Name":"iceland","Status":"Won","Description":"gypcrete","Updated At":""}},{"type":"Feature","geometry":{"type":"Point","coordinates":[-114.4753415,51.160452]},"properties":{"Project ID":"F1614","Project Name":"monowheel","Status":"DP placed","Description":"cladding","Updated At":""}},{"type":"Feature","geometry":{"type":"Point","coordinates":[-114.040869,51.024639]},"properties":{"Project ID":"F000","Project Name":"base","Status":"Bid submitted","Description":"traffic coating","Updated At":""}},{"type":"Feature","geometry":{"type":"Point","coordinates":[-114.053716,51.0212126]},"properties":{"Project ID":"F900","Project Name":"Cabin","Status":"Won","Description":"waterproofing","Updated At":""}},{"type":"Feature","geometry":{"type":"Point","coordinates":[-114.0518048,51.02284]},"properties":{"Project ID":"F700","Project Name":"Peak","Status":"Estimating","Description":"service","Updated At":""}},{"type":"Feature","geometry":{"type":"Point","coordinates":[-114.459909,51.161989]},"properties":{"Project ID":"F1489","Project Name":"greenland","Status":"Lose","Description":"roofing","Updated At":""}},{"type":"Feature","geometry":{"type":"Point","coordinates":[-114.4721913,51.1589097]},"properties":{"Project ID":"F1598","Project Name":"iceland","Status":"Won","Description":"gypcrete","Updated At":""}},{"type":"Feature","geometry":{"type":"Point","coordinates":[-114.4753415,51.160452]},"properties":{"Project ID":"F1614","Project Name":"monowheel","Status":"DP placed","Description":"cladding","Updated At":""}},{"type":"Feature","geometry":{"type":"Point","coordinates":[-114.040869,51.024639]},"properties":{"Project ID":"F000","Project Name":"base","Status":"Bid submitted","Description":"traffic coating","Updated At":""}},{"type":"Feature","geometry":{"type":"Point","coordinates":[-114.053716,51.0212126]},"properties":{"Project ID":"F900","Project Name":"Cabin","Status":"Won","Description":"waterproofing","Updated At":""}},{"type":"Feature","geometry":{"type":"Point","coordinates":[-114.0518048,51.02284]},"properties":{"Project ID":"F700","Project Name":"Peak","Status":"Estimating","Description":"service","Updated At":""}},{"type":"Feature","geometry":{"type":"Point","coordinates":[-114.459909,51.161989]},"properties":{"Project ID":"F1489","Project Name":"greenland","Status":"Lose","Description":"roofing","Updated At":""}},{"type":"Feature","geometry":{"type":"Point","coordinates":[-114.4721913,51.1589097]},"properties":{"Project ID":"F1598","Project Name":"iceland","Status":"Won","Description":"gypcrete","Updated At":""}},{"type":"Feature","geometry":{"type":"Point","coordinates":[-114.4753415,51.160452]},"properties":{"Project ID":"F1614","Project Name":"monowheel","Status":"DP placed","Description":"cladding","Updated At":""}},{"type":"Feature","geometry":{"type":"Point","coordinates":[-114.040869,51.024639]},"properties":{"Project ID":"F000","Project Name":"base","Status":"Bid submitted","Description":"traffic coating","Updated At":""}},{"type":"Feature","geometry":{"type":"Point","coordinates":[-114.053716,51.0212126]},"properties":{"Project ID":"F900","Project Name":"Cabin","Status":"Won","Description":"waterproofing","Updated At":""}},{"type":"Feature","geometry":{"type":"Point","coordinates":[-114.0518048,51.02284]},"properties":{"Project ID":"F700","Project Name":"Peak","Status":"Estimating","Description":"service","Updated At":""}}]}
